[{"stateID":"5","stateName":"California","countryID":"USA","latitude":"37.42","longitude":"-122.06"}, {"stateID":"6","stateName":"Beijing","countryID":"CHN","latitude":"39.93","longitude":"116.39"}, {"stateID":"9","stateName":"Iowa","countryID":"USA","latitude":"43.03","longitude":"-96.09"}, {"stateID":"10","stateName":"New York","countryID":"USA","latitude":"40.76","longitude":"-73.97"}, {"stateID":"11","stateName":"Hebei","countryID":"CHN","latitude":"39.89","longitude":"115.28"}, {"stateID":"12","stateName":"Jiangsu","countryID":"CHN","latitude":"32.06","longitude":"118.78"}, {"stateID":"14","stateName":"New Jersey","countryID":"USA","latitude":"39.82","longitude":"-75.13"}, {"stateID":"15","stateName":"Massachusetts","countryID":"USA","latitude":"42.56","longitude":"-72.18"}, {"stateID":"16","stateName":"Connecticut","countryID":"USA","latitude":"41.14","longitude":"-73.26"}, {"stateID":"17","stateName":"Guangdong","countryID":"CHN","latitude":"23.12","longitude":"113.25"}, {"stateID":"19","stateName":"Florida","countryID":"USA","latitude":"28.05","longitude":"-82.36"}, {"stateID":"24","stateName":"Texas","countryID":"USA","latitude":"30.27","longitude":"-97.74"}, {"stateID":"28","stateName":"Armed Forces US","countryID":"USA","latitude":"31.53","longitude":"-110.36"}, {"stateID":"32","stateName":"Tennessee","countryID":"USA","latitude":"35.04","longitude":"-89.93"}, {"stateID":"33","stateName":"Kentucky","countryID":"USA","latitude":"39.02","longitude":"-84.56"}, {"stateID":"34","stateName":"Ile-de-France","countryID":"FRA","latitude":"48.8","longitude":"2.5"}, {"stateID":"35","stateName":"Georgia","countryID":"USA","latitude":"33.84","longitude":"-84.38"}, {"stateID":"37","stateName":"Rio de Janeiro","countryID":"BRA","latitude":"-22.9","longitude":"-43.23"}, {"stateID":"44","stateName":"Illinois","countryID":"USA","latitude":"42.05","longitude":"-88.05"}, {"stateID":"46","stateName":"Ceara","countryID":"BRA","latitude":"-3.32","longitude":"-41.42"}, {"stateID":"47","stateName":"Colorado","countryID":"USA","latitude":"39.74","longitude":"-104.98"}, {"stateID":"48","stateName":"Zhejiang","countryID":"CHN","latitude":"28.02","longitude":"120.65"}, {"stateID":"49","stateName":"Utah","countryID":"USA","latitude":"40.76","longitude":"-111.89"}, {"stateID":"52","stateName":"Liaoning","countryID":"CHN","latitude":"41.79","longitude":"123.43"}, {"stateID":"56","stateName":"Haryana","countryID":"IND","latitude":"28.47","longitude":"77.03"}, {"stateID":"57","stateName":"Maryland","countryID":"USA","latitude":"39.1","longitude":"-76.88"}, {"stateID":"62","stateName":"Shanghai","countryID":"CHN","latitude":"31","longitude":"121.41"}, {"stateID":"64","stateName":"Tianjin","countryID":"CHN","latitude":"39.14","longitude":"117.18"}, {"stateID":"72","stateName":"South Carolina","countryID":"USA","latitude":"33.92","longitude":"-80.34"}, {"stateID":"73","stateName":"Montana","countryID":"USA","latitude":"45.77","longitude":"-110.93"}, {"stateID":"76","stateName":"Louisiana","countryID":"USA","latitude":"29.91","longitude":"-90.05"}, {"stateID":"77","stateName":"Fujian","countryID":"CHN","latitude":"24.47","longitude":"118.09"}, {"stateID":"78","stateName":"Santa Catarina","countryID":"BRA","latitude":"-26.48","longitude":"-49.07"}, {"stateID":"80","stateName":"Espirito Santo","countryID":"BRA","latitude":"-20.12","longitude":"-40.3"}, {"stateID":"84","stateName":"Washington","countryID":"USA","latitude":"47.09","longitude":"-122.65"}, {"stateID":"85","stateName":"Andhra Pradesh","countryID":"IND","latitude":"17.38","longitude":"78.47"}, {"stateID":"87","stateName":"Pennsylvania","countryID":"USA","latitude":"40.45","longitude":"-79.99"}, {"stateID":"90","stateName":"Guangxi","countryID":"CHN","latitude":"22.82","longitude":"108.32"}, {"stateID":"93","stateName":"North Carolina","countryID":"USA","latitude":"35.75","longitude":"-78.72"}, {"stateID":"94","stateName":"Shandong","countryID":"CHN","latitude":"37.26","longitude":"117.08"}, {"stateID":"97","stateName":"Chongqing","countryID":"CHN","latitude":"29.56","longitude":"106.55"}, {"stateID":"98","stateName":"Michigan","countryID":"USA","latitude":"43.93","longitude":"-86.26"}, {"stateID":"99","stateName":"Hubei","countryID":"CHN","latitude":"30.58","longitude":"114.27"}, {"stateID":"100","stateName":"Delhi","countryID":"IND","latitude":"28.67","longitude":"77.22"}, {"stateID":"101","stateName":"Arkansas","countryID":"USA","latitude":"36.19","longitude":"-94.24"}, {"stateID":"107","stateName":"Wisconsin","countryID":"USA","latitude":"44.63","longitude":"-90.2"}, {"stateID":"112","stateName":"Midi-Pyrenees","countryID":"FRA","latitude":"43.73","longitude":"1.42"}, {"stateID":"116","stateName":"Picardie","countryID":"FRA","latitude":"49.02","longitude":"1.9"}, {"stateID":"121","stateName":"Bahia","countryID":"BRA","latitude":"-12.98","longitude":"-38.52"}, {"stateID":"123","stateName":"Heilongjiang","countryID":"CHN","latitude":"45.75","longitude":"126.65"}, {"stateID":"128","stateName":"Tamil Nadu","countryID":"IND","latitude":"13.08","longitude":"80.28"}, {"stateID":"129","stateName":"Ohio","countryID":"USA","latitude":"39.11","longitude":"-84.5"}, {"stateID":"132","stateName":"New Mexico","countryID":"USA","latitude":"35.78","longitude":"-105.87"}, {"stateID":"133","stateName":"Kansas","countryID":"USA","latitude":"37.69","longitude":"-97.34"}, {"stateID":"136","stateName":"Oregon","countryID":"USA","latitude":"45.44","longitude":"-122.97"}, {"stateID":"138","stateName":"Uttar Pradesh","countryID":"IND","latitude":"27.18","longitude":"78.02"}, {"stateID":"140","stateName":"Nebraska","countryID":"USA","latitude":"41.11","longitude":"-95.93"}, {"stateID":"143","stateName":"West Virginia","countryID":"USA","latitude":"39.46","longitude":"-77.95"}, {"stateID":"144","stateName":"Virginia","countryID":"USA","latitude":"37.13","longitude":"-76.45"}, {"stateID":"145","stateName":"Missouri","countryID":"USA","latitude":"38.25","longitude":"-94.31"}, {"stateID":"148","stateName":"Mississippi","countryID":"USA","latitude":"32.37","longitude":"-90.11"}, {"stateID":"151","stateName":"Rhode Island","countryID":"USA","latitude":"41.82","longitude":"-71.41"}, {"stateID":"155","stateName":"Sao Paulo","countryID":"BRA","latitude":"-23.95","longitude":"-46.33"}, {"stateID":"156","stateName":"Shanxi","countryID":"CHN","latitude":"37.9","longitude":"112.19"}, {"stateID":"160","stateName":"Karnataka","countryID":"IND","latitude":"12.98","longitude":"77.58"}, {"stateID":"161","stateName":"Hunan","countryID":"CHN","latitude":"26.97","longitude":"109.77"}, {"stateID":"163","stateName":"Indiana","countryID":"USA","latitude":"39.79","longitude":"-86.17"}, {"stateID":"164","stateName":"Oklahoma","countryID":"USA","latitude":"34.66","longitude":"-98.48"}, {"stateID":"175","stateName":"Minnesota","countryID":"USA","latitude":"44.98","longitude":"-93.27"}, {"stateID":"176","stateName":"Alabama","countryID":"USA","latitude":"33.8","longitude":"-87.28"}, {"stateID":"178","stateName":"Hainan","countryID":"CHN","latitude":"19.14","longitude":"110.48"}, {"stateID":"181","stateName":"Arizona","countryID":"USA","latitude":"33.46","longitude":"-111.99"}, {"stateID":"182","stateName":"Sichuan","countryID":"CHN","latitude":"30.67","longitude":"104.07"}, {"stateID":"186","stateName":"South Dakota","countryID":"USA","latitude":"43.72","longitude":"-98.03"}, {"stateID":"187","stateName":"Maharashtra","countryID":"IND","latitude":"18.98","longitude":"72.83"}, {"stateID":"192","stateName":"Nevada","countryID":"USA","latitude":"36.17","longitude":"-115.28"}, {"stateID":"196","stateName":"Henan","countryID":"CHN","latitude":"34.22","longitude":"113.77"}, {"stateID":"206","stateName":"Kerala","countryID":"IND","latitude":"8.51","longitude":"76.96"}, {"stateID":"215","stateName":"New Hampshire","countryID":"USA","latitude":"42.87","longitude":"-71.39"}, {"stateID":"218","stateName":"Maine","countryID":"USA","latitude":"44.08","longitude":"-70.17"}, {"stateID":"220","stateName":"Hawaii","countryID":"USA","latitude":"21.3","longitude":"-157.79"}, {"stateID":"225","stateName":"Chhattisgarh","countryID":"IND","latitude":"21.18","longitude":"81.28"}, {"stateID":"236","stateName":"Anhui","countryID":"CHN","latitude":"31.86","longitude":"117.28"}, {"stateID":"249","stateName":"District of Columbia","countryID":"USA","latitude":"38.9","longitude":"-77.04"}, {"stateID":"254","stateName":"Delaware","countryID":"USA","latitude":"39.62","longitude":"-75.7"}, {"stateID":"258","stateName":"West Bengal","countryID":"IND","latitude":"22.57","longitude":"88.37"}, {"stateID":"268","stateName":"Shaanxi","countryID":"CHN","latitude":"34.26","longitude":"108.94"}, {"stateID":"274","stateName":"Madhya Pradesh","countryID":"IND","latitude":"22.72","longitude":"75.83"}, {"stateID":"284","stateName":"Gujarat","countryID":"IND","latitude":"23.03","longitude":"72.62"}, {"stateID":"296","stateName":"Franche-Comte","countryID":"FRA","latitude":"47.63","longitude":"6.87"}, {"stateID":"305","stateName":"Idaho","countryID":"USA","latitude":"48.39","longitude":"-116.89"}, {"stateID":"306","stateName":"Rajasthan","countryID":"IND","latitude":"26.92","longitude":"75.82"}, {"stateID":"307","stateName":"Nei Mongol","countryID":"CHN","latitude":"49.2","longitude":"119.7"}, {"stateID":"315","stateName":"Alsace","countryID":"FRA","latitude":"48.58","longitude":"7.75"}, {"stateID":"317","stateName":"Orissa","countryID":"IND","latitude":"20.5","longitude":"85.83"}, {"stateID":"334","stateName":"Jilin","countryID":"CHN","latitude":"43.88","longitude":"125.32"}, {"stateID":"355","stateName":"Jharkhand","countryID":"IND","latitude":"23.35","longitude":"85.33"}, {"stateID":"363","stateName":"Chandigarh","countryID":"IND","latitude":"30.74","longitude":"76.79"}, {"stateID":"377","stateName":"Punjab","countryID":"IND","latitude":"30.9","longitude":"75.85"}, {"stateID":"409","stateName":"Languedoc-Roussillon","countryID":"FRA","latitude":"43.4","longitude":"3.68"}, {"stateID":"416","stateName":"Assam","countryID":"IND","latitude":"24.82","longitude":"92.8"}, {"stateID":"431","stateName":"Centre","countryID":"FRA","latitude":"47.08","longitude":"2.4"}, {"stateID":"469","stateName":"Champagne-Ardenne","countryID":"FRA","latitude":"49.42","longitude":"4.5"}, {"stateID":"471","stateName":"Bretagne","countryID":"FRA","latitude":"48.77","longitude":"2.3"}, {"stateID":"544","stateName":"Rhone-Alpes","countryID":"FRA","latitude":"45.75","longitude":"4.85"}, {"stateID":"555","stateName":"Nord-Pas-de-Calais","countryID":"FRA","latitude":"50.75","longitude":"2.15"}, {"stateID":"556","stateName":"Lorraine","countryID":"FRA","latitude":"48.68","longitude":"6.2"}, {"stateID":"561","stateName":"Rio Grande do Sul","countryID":"BRA","latitude":"-30.03","longitude":"-51.2"}, {"stateID":"563","stateName":"Provence-Alpes-Cote d'Azur","countryID":"FRA","latitude":"44.4","longitude":"4.93"}, {"stateID":"586","stateName":"Minas Gerais","countryID":"BRA","latitude":"-19.92","longitude":"-43.93"}, {"stateID":"598","stateName":"Limousin","countryID":"FRA","latitude":"45.85","longitude":"1.25"}, {"stateID":"600","stateName":"Guizhou","countryID":"CHN","latitude":"26.58","longitude":"106.72"}, {"stateID":"635","stateName":"Haute-Normandie","countryID":"FRA","latitude":"49.15","longitude":"1.33"}, {"stateID":"649","stateName":"Poitou-Charentes","countryID":"FRA","latitude":"45.65","longitude":"0.15"}, {"stateID":"667","stateName":"Wyoming","countryID":"USA","latitude":"44.78","longitude":"-107.55"}, {"stateID":"676","stateName":"Daman and Diu","countryID":"IND","latitude":"20.37","longitude":"72.9"}, {"stateID":"701","stateName":"Para","countryID":"BRA","latitude":"-1.27","longitude":"-48.18"}, {"stateID":"708","stateName":"Basse-Normandie","countryID":"FRA","latitude":"49.15","longitude":"0.23"}, {"stateID":"728","stateName":"Bihar","countryID":"IND","latitude":"25.6","longitude":"85.12"}, {"stateID":"729","stateName":"Aquitaine","countryID":"FRA","latitude":"45.12","longitude":"0.4"}, {"stateID":"773","stateName":"Parana","countryID":"BRA","latitude":"-25.42","longitude":"-49.25"}, {"stateID":"798","stateName":"Auvergne","countryID":"FRA","latitude":"46.28","longitude":"3.6"}, {"stateID":"808","stateName":"Pernambuco","countryID":"BRA","latitude":"-8.05","longitude":"-34.9"}, {"stateID":"822","stateName":"Pays de la Loire","countryID":"FRA","latitude":"47.47","longitude":"0.2"}, {"stateID":"838","stateName":"Amazonas","countryID":"BRA","latitude":"-3.11","longitude":"-60.03"}, {"stateID":"842","stateName":"Distrito Federal","countryID":"BRA","latitude":"-15.78","longitude":"-47.92"}, {"stateID":"924","stateName":"North Dakota","countryID":"USA","latitude":"46.96","longitude":"-97.68"}, {"stateID":"937","stateName":"Bourgogne","countryID":"FRA","latitude":"47.8","longitude":"3.57"}, {"stateID":"959","stateName":"Vermont","countryID":"USA","latitude":"44.49","longitude":"-73.23"}, {"stateID":"970","stateName":"Goias","countryID":"BRA","latitude":"-15.93","longitude":"-50.13"}, {"stateID":"1008","stateName":"Himachal Pradesh","countryID":"IND","latitude":"31.1","longitude":"77.17"}, {"stateID":"1011","stateName":"Sergipe","countryID":"BRA","latitude":"-11.27","longitude":"-37.43"}, {"stateID":"1061","stateName":"Alaska","countryID":"USA","latitude":"61.52","longitude":"-149.57"}, {"stateID":"1102","stateName":"Mato Grosso do Sul","countryID":"BRA","latitude":"-22.22","longitude":"-54.8"}, {"stateID":"1178","stateName":"Yunnan","countryID":"CHN","latitude":"25.04","longitude":"102.72"}, {"stateID":"1200","stateName":"Uttarakhand","countryID":"IND","latitude":"30.32","longitude":"78.03"}, {"stateID":"1203","stateName":"Meghalaya","countryID":"IND","latitude":"25.58","longitude":"91.87"}, {"stateID":"1231","stateName":"Jiangxi","countryID":"CHN","latitude":"28.55","longitude":"115.93"}, {"stateID":"1269","stateName":"Rio Grande do Norte","countryID":"BRA","latitude":"-5.78","longitude":"-35.22"}, {"stateID":"1293","stateName":"Paraiba","countryID":"BRA","latitude":"-7.22","longitude":"-35.88"}, {"stateID":"1297","stateName":"Piaui","countryID":"BRA","latitude":"-5.08","longitude":"-42.82"}, {"stateID":"1310","stateName":"Gansu","countryID":"CHN","latitude":"36.06","longitude":"103.79"}, {"stateID":"1312","stateName":"Jammu and Kashmir","countryID":"IND","latitude":"33.8","longitude":"74.26"}, {"stateID":"1334","stateName":"Goa","countryID":"IND","latitude":"15.27","longitude":"73.92"}, {"stateID":"1335","stateName":"Maranhao","countryID":"BRA","latitude":"-2.52","longitude":"-44.27"}, {"stateID":"1457","stateName":"Mato Grosso","countryID":"BRA","latitude":"-15.58","longitude":"-56.08"}, {"stateID":"1483","stateName":"Corse","countryID":"FRA","latitude":"41.92","longitude":"8.73"}, {"stateID":"1568","stateName":"Alagoas","countryID":"BRA","latitude":"-9.67","longitude":"-35.72"}, {"stateID":"1596","stateName":"Puducherry","countryID":"IND","latitude":"11.93","longitude":"79.83"}, {"stateID":"1654","stateName":"Manipur","countryID":"IND","latitude":"24.82","longitude":"93.95"}, {"stateID":"1673","stateName":"Tocantins","countryID":"BRA","latitude":"-10.22","longitude":"-48.28"}, {"stateID":"1714","stateName":"Roraima","countryID":"BRA","latitude":"3.83","longitude":"-60.22"}, {"stateID":"1723","stateName":"Rondonia","countryID":"BRA","latitude":"-10.67","longitude":"-62.3"}, {"stateID":"1736","stateName":"Xizang","countryID":"CHN","latitude":"29.65","longitude":"91.1"}, {"stateID":"1741","stateName":"Ningxia","countryID":"CHN","latitude":"38.47","longitude":"106.27"}, {"stateID":"1751","stateName":"Xinjiang","countryID":"CHN","latitude":"43.8","longitude":"87.58"}, {"stateID":"1753","stateName":"Qinghai","countryID":"CHN","latitude":"36.5","longitude":"101.6"}, {"stateID":"1791","stateName":"Mizoram","countryID":"IND","latitude":"23.72","longitude":"92.72"}, {"stateID":"1846","stateName":"Dadra and Nagar Haveli","countryID":"IND","latitude":"20.27","longitude":"73.02"}, {"stateID":"1874","stateName":"Arunachal Pradesh","countryID":"IND","latitude":"27.57","longitude":"93.85"}, {"stateID":"1918","stateName":"Tripura","countryID":"IND","latitude":"23.84","longitude":"91.28"}, {"stateID":"2113","stateName":"Amapa","countryID":"BRA","latitude":"0.03","longitude":"-51.05"}, {"stateID":"2116","stateName":"Acre","countryID":"BRA","latitude":"-9.97","longitude":"-67.8"}, {"stateID":"2320","stateName":"Sikkim","countryID":"IND","latitude":"27.33","longitude":"88.62"}, {"stateID":"2370","stateName":"Nagaland","countryID":"IND","latitude":"25.67","longitude":"94.12"}, {"stateID":"2594","stateName":"Andaman and Nicobar Islands","countryID":"IND","latitude":"11.67","longitude":"92.75"}, {"stateID":"2973","stateName":"Shandong Sheng","countryID":"CHN","latitude":"36.67","longitude":"117"}, {"stateID":"2977","stateName":"Henan Sheng","countryID":"CHN","latitude":"34.68","longitude":"113.53"}, {"stateID":"2981","stateName":"Shanghai Shi","countryID":"CHN","latitude":"31.05","longitude":"121.4"}, {"stateID":"2982","stateName":"Zhejiang Sheng","countryID":"CHN","latitude":"28","longitude":"120.67"}, {"stateID":"2989","stateName":"Sichuan Sheng","countryID":"CHN","latitude":"30.67","longitude":"104.07"}, {"stateID":"2992","stateName":"Tianjin Shi","countryID":"CHN","latitude":"39.14","longitude":"117.18"}, {"stateID":"2994","stateName":"Guangxi Zhuangzu Zizhiqu","countryID":"CHN","latitude":"22.82","longitude":"108.32"}, {"stateID":"2995","stateName":"Beijing Shi","countryID":"CHN","latitude":"39.93","longitude":"116.39"}, {"stateID":"3001","stateName":"State of Gujarat","countryID":"IND","latitude":"21.77","longitude":"72.15"}, {"stateID":"3003","stateName":"Jiangsu Sheng","countryID":"CHN","latitude":"32.06","longitude":"118.78"}, {"stateID":"3009","stateName":"National Capital Territory of Delhi","countryID":"IND","latitude":"28.6","longitude":"77.2"}, {"stateID":"3024","stateName":"Jilin Sheng","countryID":"CHN","latitude":"43.88","longitude":"125.32"}, {"stateID":"3034","stateName":"Lower Normandy","countryID":"FRA","latitude":"48.43","longitude":"0.03"}, {"stateID":"3040","stateName":"Odisha","countryID":"IND","latitude":"21.45","longitude":"83.97"}, {"stateID":"3043","stateName":"Heilongjiang Sheng","countryID":"CHN","latitude":"45.75","longitude":"126.65"}, {"stateID":"3050","stateName":"Anhui Sheng","countryID":"CHN","latitude":"31.86","longitude":"117.28"}, {"stateID":"3060","stateName":"Telangana","countryID":"IND","latitude":"17.38","longitude":"78.47"}, {"stateID":"3100","stateName":"Jiangxi Sheng","countryID":"CHN","latitude":"26.89","longitude":"114.53"}, {"stateID":"3120","stateName":"Federal District","countryID":"BRA","latitude":"-15.78","longitude":"-47.92"}, {"stateID":"3128","stateName":"Chongqing Shi","countryID":"CHN","latitude":"29.56","longitude":"106.55"}, {"stateID":"3152","stateName":"Shanxi Sheng","countryID":"CHN","latitude":"38","longitude":"112.58"}, {"stateID":"3177","stateName":"Guizhou Sheng","countryID":"CHN","latitude":"26.58","longitude":"106.72"}, {"stateID":"3192","stateName":"Gansu Sheng","countryID":"CHN","latitude":"36.06","longitude":"103.79"}, {"stateID":"3203","stateName":"Inner Mongolia","countryID":"CHN","latitude":"40.65","longitude":"109.82"}, {"stateID":"3212","stateName":"Xinjiang Uygur Zizhiqu","countryID":"CHN","latitude":"43.8","longitude":"87.6"}, {"stateID":"3225","stateName":"Tibet Autonomous Region","countryID":"CHN","latitude":"29.65","longitude":"91.1"}, {"stateID":"3260","stateName":"State of Andhra Pradesh","countryID":"IND","latitude":"17.38","longitude":"78.47"}, {"stateID":"3282","stateName":"State of Punjab","countryID":"IND","latitude":"31.33","longitude":"75.58"}, {"stateID":"3289","stateName":"State of Himachal Pradesh","countryID":"IND","latitude":"33.03","longitude":"76.45"}, {"stateID":"3290","stateName":"Kashmir","countryID":"IND","latitude":"33.8","longitude":"74.26"}, {"stateID":"3334","stateName":"State of Chhattisgarh","countryID":"IND","latitude":"20.58","longitude":"80.73"}, {"stateID":"3339","stateName":"State of Jharkhand","countryID":"IND","latitude":"23.35","longitude":"85.33"}, {"stateID":"3421","stateName":"Brittany","countryID":"FRA","latitude":"47.75","longitude":"-3.37"}, {"stateID":"3533","stateName":"State of R\u0101jasth\u0101n","countryID":"IND","latitude":"26.92","longitude":"75.82"}, {"stateID":"3582","stateName":"Upper Normandy","countryID":"FRA","latitude":"49.34","longitude":"0.96"}, {"stateID":"3747","stateName":"State of Assam","countryID":"IND","latitude":"26.18","longitude":"91.73"}, {"stateID":"3778","stateName":"Corsica","countryID":"FRA","latitude":"41.59","longitude":"9.28"}, {"stateID":"3835","stateName":"Qinghai Sheng","countryID":"CHN","latitude":"36.62","longitude":"101.77"}, {"stateID":"3842","stateName":"Union Territory of Puducherry","countryID":"IND","latitude":"10.92","longitude":"79.83"}, {"stateID":"4017","stateName":"State of Tripura","countryID":"IND","latitude":"23.84","longitude":"91.28"}, {"stateID":"4791","stateName":"Guangxi Zhuang Autonomous Region","countryID":"CHN","latitude":"22.82","longitude":"108.32"}, {"stateID":"4793","stateName":"Seine-Maritime","countryID":"FRA","latitude":"49.78","longitude":"1.69"}, {"stateID":"4794","stateName":"H\u00e9rault","countryID":"FRA","latitude":"43.29","longitude":"2.77"}, {"stateID":"4795","stateName":"Bas-Rhin","countryID":"FRA","latitude":"48.58","longitude":"7.75"}, {"stateID":"4800","stateName":"Xinjiang Uyghur Autonomous Region","countryID":"CHN","latitude":"43.8","longitude":"87.6"}, {"stateID":"4801","stateName":"Oise","countryID":"FRA","latitude":"49.26","longitude":"2.48"}, {"stateID":"4804","stateName":"Marne","countryID":"FRA","latitude":"49.27","longitude":"4.15"}, {"stateID":"4805","stateName":"Inner Mongolia Autonomous Region","countryID":"CHN","latitude":"40.65","longitude":"109.82"}, {"stateID":"4807","stateName":"Orne","countryID":"FRA","latitude":"48.43","longitude":"0.08"}, {"stateID":"4808","stateName":"Is\u00e8re","countryID":"FRA","latitude":"45.34","longitude":"5.59"}, {"stateID":"4810","stateName":"Gironde","countryID":"FRA","latitude":"44.8","longitude":"-0.6"}, {"stateID":"4811","stateName":"North","countryID":"FRA","latitude":"50.69","longitude":"3.17"}, {"stateID":"4813","stateName":"Charente-Maritime","countryID":"FRA","latitude":"46.25","longitude":"-1.03"}, {"stateID":"4814","stateName":"Rh\u00f4ne","countryID":"FRA","latitude":"45.77","longitude":"4.88"}, {"stateID":"4815","stateName":"Ari\u00e8ge","countryID":"FRA","latitude":"42.96","longitude":"1.61"}, {"stateID":"4816","stateName":"Haute-Savoie","countryID":"FRA","latitude":"45.9","longitude":"6.12"}, {"stateID":"4817","stateName":"Somme","countryID":"FRA","latitude":"49.9","longitude":"2.3"}, {"stateID":"4818","stateName":"Vosges","countryID":"FRA","latitude":"48.12","longitude":"6.53"}, {"stateID":"4819","stateName":"Meurthe et Moselle","countryID":"FRA","latitude":"48.56","longitude":"6.35"}, {"stateID":"4820","stateName":"Upper Garonne","countryID":"FRA","latitude":"43.68","longitude":"1.39"}, {"stateID":"4821","stateName":"Pyr\u00e9n\u00e9es-Orientales","countryID":"FRA","latitude":"42.4","longitude":"2.56"}, {"stateID":"4823","stateName":"Puy-de-D\u00f4me","countryID":"FRA","latitude":"45.67","longitude":"3.13"}, {"stateID":"4824","stateName":"Aude","countryID":"FRA","latitude":"42.8","longitude":"2.21"}, {"stateID":"4825","stateName":"Calvados","countryID":"FRA","latitude":"49.06","longitude":"-0.12"}, {"stateID":"4826","stateName":"Pas-de-Calais","countryID":"FRA","latitude":"50.29","longitude":"2.78"}, {"stateID":"4827","stateName":"Charente","countryID":"FRA","latitude":"45.79","longitude":"0.26"}, {"stateID":"4828","stateName":"Haute-Vienne","countryID":"FRA","latitude":"45.86","longitude":"1.39"}, {"stateID":"4830","stateName":"Haut-Rhin","countryID":"FRA","latitude":"47.75","longitude":"7.33"}, {"stateID":"4831","stateName":"Landes","countryID":"FRA","latitude":"43.79","longitude":"-0.88"}, {"stateID":"4832","stateName":"Loire","countryID":"FRA","latitude":"45.53","longitude":"4.26"}, {"stateID":"4833","stateName":"Cote d'Or","countryID":"FRA","latitude":"47.32","longitude":"5.02"}, {"stateID":"4834","stateName":"Savoy","countryID":"FRA","latitude":"45.17","longitude":"6.43"}, {"stateID":"4835","stateName":"Moselle","countryID":"FRA","latitude":"49.33","longitude":"6.05"}, {"stateID":"4836","stateName":"Sa\u00f4ne-et-Loire","countryID":"FRA","latitude":"46.21","longitude":"4.76"}, {"stateID":"4837","stateName":"Doubs","countryID":"FRA","latitude":"47.25","longitude":"6.02"}, {"stateID":"4838","stateName":"Gard","countryID":"FRA","latitude":"44.01","longitude":"4.32"}, {"stateID":"4839","stateName":"Aube","countryID":"FRA","latitude":"48.3","longitude":"4.08"}, {"stateID":"4842","stateName":"Manche","countryID":"FRA","latitude":"49.29","longitude":"-1.19"}, {"stateID":"4843","stateName":"Jura","countryID":"FRA","latitude":"46.65","longitude":"5.49"}, {"stateID":"4844","stateName":"Vienne","countryID":"FRA","latitude":"46.63","longitude":"0.31"}, {"stateID":"4845","stateName":"Hautes-Pyr\u00e9n\u00e9es","countryID":"FRA","latitude":"43.3","longitude":"0.22"}, {"stateID":"4847","stateName":"Ard\u00e8che","countryID":"FRA","latitude":"45.22","longitude":"4.68"}, {"stateID":"4848","stateName":"Loz\u00e8re","countryID":"FRA","latitude":"44.58","longitude":"3.27"}, {"stateID":"4849","stateName":"Deux-S\u00e8vres","countryID":"FRA","latitude":"46.36","longitude":"-0.38"}, {"stateID":"4850","stateName":"Ningsia Hui Autonomous Region","countryID":"CHN","latitude":"38.47","longitude":"106.27"}, {"stateID":"4852","stateName":"Eure","countryID":"FRA","latitude":"49.02","longitude":"1.16"}, {"stateID":"4853","stateName":"Aisne","countryID":"FRA","latitude":"49.61","longitude":"3.3"}, {"stateID":"4854","stateName":"Allier","countryID":"FRA","latitude":"46.29","longitude":"2.74"}, {"stateID":"4856","stateName":"Ain","countryID":"FRA","latitude":"46.15","longitude":"5.71"}, {"stateID":"4857","stateName":"Territoire de Belfort","countryID":"FRA","latitude":"47.45","longitude":"6.96"}, {"stateID":"4858","stateName":"Lot-et-Garonne","countryID":"FRA","latitude":"44.42","longitude":"0.67"}, {"stateID":"4859","stateName":"Pyr\u00e9n\u00e9es-Atlantiques","countryID":"FRA","latitude":"43.33","longitude":"-0.5"}, {"stateID":"4860","stateName":"Haute-Sa\u00f4ne","countryID":"FRA","latitude":"47.48","longitude":"5.93"}, {"stateID":"4862","stateName":"Dordogne","countryID":"FRA","latitude":"44.82","longitude":"1.07"}, {"stateID":"4865","stateName":"Gers","countryID":"FRA","latitude":"43.61","longitude":"1.08"}, {"stateID":"4868","stateName":"Ni\u00e8vre","countryID":"FRA","latitude":"47.43","longitude":"3.4"}, {"stateID":"4871","stateName":"Haute-Loire","countryID":"FRA","latitude":"45.34","longitude":"3.78"}, {"stateID":"4872","stateName":"Meuse","countryID":"FRA","latitude":"49.26","longitude":"5.41"}, {"stateID":"4876","stateName":"Haute-Marne","countryID":"FRA","latitude":"48.4","longitude":"5.18"}, {"stateID":"4877","stateName":"Ardennes","countryID":"FRA","latitude":"49.77","longitude":"4.72"}, {"stateID":"4878","stateName":"Lot","countryID":"FRA","latitude":"44.85","longitude":"1.56"}, {"stateID":"4881","stateName":"Dr\u00f4me","countryID":"FRA","latitude":"44.56","longitude":"4.75"}, {"stateID":"4884","stateName":"Aveyron","countryID":"FRA","latitude":"44.32","longitude":"2.28"}, {"stateID":"4886","stateName":"Tarn","countryID":"FRA","latitude":"43.93","longitude":"2.15"}, {"stateID":"4892","stateName":"Guangdong","countryID":"USA","latitude":"37.75","longitude":"-97.82"}, {"stateID":"4893","stateName":"Yonne","countryID":"FRA","latitude":"47.8","longitude":"3.57"}, {"stateID":"4895","stateName":"Tarn-et-Garonne","countryID":"FRA","latitude":"44.11","longitude":"0.82"}, {"stateID":"4896","stateName":"Cantal","countryID":"FRA","latitude":"45.37","longitude":"2.55"}, {"stateID":"4898","stateName":"Corr\u00e8ze","countryID":"FRA","latitude":"45.43","longitude":"1.84"}, {"stateID":"4903","stateName":"Creuse","countryID":"FRA","latitude":"46.41","longitude":"1.82"}, {"stateID":"5042","stateName":"Laccadives","countryID":"IND","latitude":"10.57","longitude":"72.62"}, {"stateID":"5106","stateName":"Nouvelle-Aquitaine","countryID":"FRA","latitude":"44.85","longitude":"-0.22"}, {"stateID":"5107","stateName":"Hauts-de-France","countryID":"FRA","latitude":"50.39","longitude":"3.17"}, {"stateID":"5119","stateName":"Bourgogne-Franche-Comte","countryID":"FRA","latitude":"47.76","longitude":"3.41"}, {"stateID":"5122","stateName":"Occitanie","countryID":"FRA","latitude":"43.87","longitude":"1.51"}, {"stateID":"5124","stateName":"Normandy","countryID":"FRA","latitude":"49.02","longitude":"1.15"}, {"stateID":"5126","stateName":"Auvergne-Rhone-Alpes","countryID":"FRA","latitude":"45.43","longitude":"4.39"}, {"stateID":"5129","stateName":"Grand-Est","countryID":"FRA","latitude":"49.29","longitude":"5.74"}, {"stateID":"5151","stateName":"Tibet","countryID":"CHN","latitude":"29.65","longitude":"91.1"}, {"stateID":"5243","stateName":"Andaman and Nicobar","countryID":"IND","latitude":"11.67","longitude":"92.75"}]
